SiteName,obs_Syear,obs_Eyear,Source,filename,Run_Flag,IGBP_CLASS,z_T,z_U,dt,C3,D0,rss_v,g_min_c,Kr,dl,z0_soil,Km,cd,use_Syear,use_Eyear,lon,lat
AT-Neu,2002,2012,FLUXNET2015,AT-Neu_2002-2012_FLUXNET2015_Flux.nc,1,10,-9999,-9999,3600,1,0.25,1,0.4,0.6,0.068,0.01,2.5,0.1,2002,2012,11.317500114440918,47.116668701171875
CH-Cha,2006,2014,FLUXNET2015,CH-Cha_2006-2014_FLUXNET2015_Flux.nc,1,10,-9999,-9999,3600,1,0.25,1,0.4,0.6,0.068,0.01,2.5,0.1,2006,2014,8.410440444946289,47.21022033691406
CH-Fru,2007,2014,FLUXNET2015,CH-Fru_2007-2014_FLUXNET2015_Flux.nc,1,10,-9999,-9999,3600,1,0.25,1,0.4,0.6,0.068,0.01,2.5,0.1,2007,2014,8.537779808044434,47.1158332824707
CN-HaM,2002,2003,FLUXNET2015,CN-HaM_2002-2003_FLUXNET2015_Flux.nc,1,10,-9999,-9999,3600,1,0.25,1,0.4,0.6,0.068,0.01,2.5,0.1,2002,2003,101.18000030517578,37.369998931884766
CZ-wet,2007,2014,FLUXNET2015,CZ-wet_2007-2014_FLUXNET2015_Flux.nc,1,11,-9999,-9999,3600,1,0.25,1,0.4,0.6,0.068,0.01,2.5,0.1,2007,2014,14.770350456237793,49.02465057373047
